{"geocode_foodArea":[{"idx":"0","address":"제주 제주시 조천읍 비자림로 666","lat":"33.4367766","long":"126.6775543"},{"idx":"1","address":"제주 제주시 애월읍 소길2길 53","lat":"33.4396333","long":"126.3787345"},{"idx":"2","address":"제주 제주시 한림읍 금능5길 21 2층","lat":"33.3894116","long":"126.2268728"},{"idx":"3","address":"제주 서귀포시 대정읍 단산로 95 1층","lat":"33.2430707","long":"126.2891226"},{"idx":"4","address":"제주 제주시 오남로6길 24","lat":"33.490672","long":"126.5177399"},{"idx":"5","address":"제주 제주시 탑동로 15 1,2층","lat":"33.5170276","long":"126.5231102"},{"idx":"6","address":"제주 제주시 도령로 27 베스트웨스턴호텔 1층","lat":"33.4877957","long":"126.4818957"},{"idx":"7","address":"제주 제주시 삼성로9길 18-1 1층","lat":"33.508983","long":"126.5306201"},{"idx":"8","address":"제주 제주시 한림읍 협재10길 14 두부 제주협재점","lat":"33.3983225","long":"126.2470561"},{"idx":"9","address":"제주 제주시 한림읍 협재로 3","lat":"33.3968233","long":"126.2445723"},{"idx":"10","address":"제주 제주시 한림읍 협재4길 7-8","lat":"33.3941642","long":"126.242056"},{"idx":"11","address":"제주 제주시 한림읍 협재2길 14 1층","lat":"33.3925577","long":"126.2413575"},{"idx":"12","address":"제주 제주시 한림읍 한림상로 15-5 문쏘 제주협재점","lat":"33.4056209","long":"126.2566867"},{"idx":"13","address":"제주 서귀포시 안덕면 사계중앙로18번길 5 환이네 이태리식당","lat":"33.2306946","long":"126.2969947"},{"idx":"14","address":"제주 제주시 연동12길 28-13 1층","lat":"33.4831417","long":"126.4921518"},{"idx":"15","address":"제주 제주시 조천읍 신촌북3길 1","lat":"33.5372517","long":"126.6189081"},{"idx":"16","address":"제주 제주시 서광로28길 53","lat":"33.4969683","long":"126.5297525"},{"idx":"17","address":"제주 제주시 구좌읍 김녕리 6145","lat":"33.5602655","long":"126.7302374"},{"idx":"18","address":"제주 서귀포시 서호남로32번길 10-4","lat":"33.2541205","long":"126.560076"},{"idx":"19","address":"제주 제주시 아연로 124-23 정실금수강산","lat":"33.47274549999999","long":"126.5064999"},{"idx":"20","address":"제주 제주시 은남2길 41 1층","lat":"33.4881733","long":"126.4913351"},{"idx":"21","address":"제주 제주시 한림읍 금능길 65 1층","lat":"33.3884475","long":"126.2301314"},{"idx":"22","address":"제주 제주시 한경면 금등4길 11 마루나키친","lat":"33.3619265","long":"126.195894"},{"idx":"23","address":"제주 서귀포시 이어도로 679 1층","lat":"33.240469","long":"126.493008"},{"idx":"24","address":"제주 서귀포시 중앙로 35 1층","lat":"33.2477094","long":"126.5617231"},{"idx":"25","address":"제주 서귀포시 남원읍 태위로 3 1층","lat":"33.271953","long":"126.6485335"},{"idx":"26","address":"제주 제주시 조천읍 신북로 489","lat":"33.5431462","long":"126.6625984"},{"idx":"27","address":"제주 서귀포시 중문관광로72번길 29-9 신우성타운 내 라동","lat":"33.2496486","long":"126.41154"},{"idx":"28","address":"제주 서귀포시 천제연로188번길 17","lat":"33.2502561","long":"126.4245006"},{"idx":"29","address":"제주 제주시 애월읍 소길1길 19 골목카페옥수","lat":"33.4398364","long":"126.3799636"},{"idx":"30","address":"제주 제주시 조천읍 조함해안로 519-10","lat":"33.5437905","long":"126.6688441"},{"idx":"31","address":"제주 제주시 조천읍 조함해안로 552-3","lat":"33.5424691","long":"126.6718069"},{"idx":"32","address":"제주 제주시 우도면 연평리 712-1","lat":"33.5156863","long":"126.9580858"},{"idx":"33","address":"제주 제주시 우도면 우도해안길 144","lat":"33.4941796","long":"126.9452751"},{"idx":"34","address":"제주 제주시 우도면 우도해안길 816 1,2층","lat":"33.513074","long":"126.957847"},{"idx":"35","address":"제주 제주시 우도면 우도해안길 792","lat":"33.5151156","long":"126.9572423"},{"idx":"36","address":"제주 제주시 우도면 우도해안길 684 카페뷰","lat":"33.5074342","long":"126.954269"},{"idx":"37","address":"제주 제주시 우도면 우도해안길 780-2","lat":"33.5162706","long":"126.9576666"}]}