{"geocode_placeArea":[{"idx":"0","address":"제주 제주시 한림읍 협재리 2497-1","lat":"33.39244","long":"126.2390363"},{"idx":"1","address":"주소  제주특별자치도 제주시 한림로 300","lat":"33.3894949","long":"126.2396825"},{"idx":"2","address":"제주 제주시 한림읍 금능리","lat":"33.3598575","long":"126.2460727"},{"idx":"3","address":"제주 제주시 한림읍 금능농공길 62-11","lat":"33.3586429","long":"126.2415545"},{"idx":"4","address":"제주 제주시 한림읍 월림7길 155 더마파크","lat":"33.3555222","long":"126.2420266"},{"idx":"5","address":"제주 제주시 애월읍 봉성리 산59-8","lat":"33.3689588","long":"126.3505941"},{"idx":"6","address":"제주 제주시 애월읍 천덕로 880-24","lat":"33.4353027","long":"126.3219516"},{"idx":"7","address":"제주 제주시 애월읍 곽지리","lat":"33.4461558","long":"126.3144749"},{"idx":"8","address":"제주 제주시 애월읍 평화로 2835 사진놀이터","lat":"33.45615799999999","long":"126.4419907"},{"idx":"9","address":"제주 제주시 수목원길 72","lat":"33.4699272","long":"126.4932445"},{"idx":"10","address":"제주 제주시 삼무로 51","lat":"33.490268","long":"126.4924748"},{"idx":"11","address":"제주 제주시 용두암길 15","lat":"33.5149624","long":"126.5116869"},{"idx":"12","address":"제주 제주시 오라이동 산107-20","lat":"33.3875036","long":"126.5252775"},{"idx":"13","address":"제주 제주시 조천읍 조함해안로 525","lat":"33.5427175","long":"126.6692481"},{"idx":"14","address":"제주 제주시 구좌읍 금백조로 930","lat":"33.444752","long":"126.7775324"},{"idx":"15","address":"제주 서귀포시 이어도로 293-28","lat":"33.2457655","long":"126.4493336"},{"idx":"16","address":"제주 서귀포시 표선면 표선리","lat":"33.3225332","long":"126.8228665"},{"idx":"17","address":"제주 서귀포시 성산읍 성산리 1","lat":"33.4584473","long":"126.9425348"},{"idx":"18","address":"제주 제주시 구좌읍 비자숲길 55","lat":"33.4913168","long":"126.8113883"},{"idx":"19","address":"제주 제주시 조천읍 교래리 산137-1","lat":"33.4276176","long":"126.6665803"},{"idx":"20","address":"제주 제주시 구좌읍 김녕리","lat":"33.5398407","long":"126.746583"},{"idx":"21","address":"제주 서귀포시 쇠소깍로 104","lat":"33.2542498","long":"126.6224923"},{"idx":"22","address":"제주 서귀포시 칠십리로214번길 37","lat":"33.2447436","long":"126.5731957"},{"idx":"23","address":"제주 서귀포시 안덕면 사계북로41번길 192","lat":"33.2481936","long":"126.2989561"},{"idx":"24","address":"제주 제주시 조천읍 선교로 115-1","lat":"33.4868384","long":"126.707013"},{"idx":"25","address":"제주 서귀포시 대정읍 송악관광로 421-1","lat":"33.2077142","long":"126.2909893"},{"idx":"26","address":"제주 제주시 명림로 584","lat":"33.4393726","long":"126.6284479"},{"idx":"27","address":"제주 서귀포시 천지동 667-7","lat":"33.2479047","long":"126.5612847"},{"idx":"28","address":"제주 서귀포시 1100로 1555","lat":"33.2763665","long":"126.4476633"},{"idx":"29","address":"제주특별자치도 서귀포시 서홍동 766-1","lat":"33.2415663","long":"126.549811"},{"idx":"30","address":"제주 서귀포시 안덕면 사계리 112-3","lat":"33.2328609","long":"126.3140629"},{"idx":"31","address":"제주 서귀포시 성산읍 고성리","lat":"33.4445754","long":"126.9095025"},{"idx":"32","address":"제주 서귀포시 산록남로 1258","lat":"33.2935846","long":"126.4223931"},{"idx":"33","address":"제주 제주시 애월읍 애원로 804","lat":"33.4431304","long":"126.3385993"},{"idx":"34","address":"제주 제주시 애월읍 평화로 2157-1","lat":"33.4123475","long":"126.3926093"},{"idx":"35","address":"제주 제주시 애월읍 도치돌길 303","lat":"33.4140574","long":"126.3561613"},{"idx":"36","address":"제주 제주시 애월읍 평화로 1529","lat":"33.3628158","long":"126.3633602"},{"idx":"37","address":"제주 제주시 애월읍 도치돌길 289-13","lat":"33.411151","long":"126.3652835"},{"idx":"38","address":"제주 제주시 애월읍 하귀미수포길 16-1","lat":"33.4843474","long":"126.4022326"},{"idx":"39","address":"제주 제주시 애월읍 고성북길 112","lat":"33.4681025","long":"126.4131163"},{"idx":"40","address":"제주 제주시 애월읍 평화로 2346","lat":"33.4221679","long":"126.4093068"},{"idx":"41","address":"제주 제주시 조천읍 함덕리 1008","lat":"33.5440182","long":"126.6683905"},{"idx":"42","address":"제주 제주시 조천읍 함덕리 169-1","lat":"33.5452975","long":"126.6776317"},{"idx":"43","address":"제주특별자치도 제주시 조천읍 함덕리 1008","lat":"33.5440182","long":"126.6683905"},{"idx":"44","address":"제주 제주시 조천읍 함덕로 9","lat":"33.5407113","long":"126.6734326"},{"idx":"45","address":"제주 제주시 조천읍 신북로 502","lat":"33.5424437","long":"126.6637527"},{"idx":"46","address":"제주 제주시 조천읍 함덕로 32 1층 함덕메리굿","lat":"33.5419857","long":"126.6719672"},{"idx":"47","address":"제주 제주시 조천읍 조함해안로 321-21","lat":"33.5508391","long":"126.652762"},{"idx":"48","address":"제주 제주시 조천읍 북촌서1길 70","lat":"33.5387743","long":"126.6887213"},{"idx":"49","address":"제주 제주시 우도면","lat":"33.5064911","long":"126.953361"},{"idx":"50","address":"제주 제주시 우도면 우도해안길 181 우도올레보트","lat":"33.4967353","long":"126.9446953"},{"idx":"51","address":"제주 제주시 우도면 연평리 산18-2","lat":"33.4926441","long":"126.9642977"},{"idx":"52","address":"제주 제주시 우도면 연평리 1964","lat":"33.5019025","long":"126.947025"}]}